{
  "last_updated": 1592343266,
  "ttl": 10,
  "data": {
    "stations": [
      {
        "station_id": "001",
        "name": "Aker Brygge",
        "address": "Aker Brygge",
        "lat": 59.91118372188379,
        "lon": 10.730034556850455,
        "capacity": 33
      },
      {
        "station_id": "002",
        "name": "Stortingstunellen",
        "address": "R\u00e5dhusgata 34",
        "lat": 59.91065301806209,
        "lon": 10.737365277561025,
        "capacity": 666
      },
      {
        "station_id": "003",
        "name": "Professor Aschehougs plass",
        "address": "Professor Aschehougs plass",
        "lat": 59.9147672,
        "lon": 10.740971,
        "capacity": 12
      },
      {
        "station_id": "004",
        "name": "Borgenveien",
        "address": "Slemsdalsveien 70B",
        "lat": 59.942742106473666,
        "lon": 10.703833031254021,
        "capacity": 10
      },
      {
        "station_id": "005",
        "name": "Enerhaugen",
        "address": "S\u00f8rligata 2",
        "lat": 59.91320242563816,
        "lon": 10.767579386407874,
        "capacity": 25
      },
      {
        "station_id": "006",
        "name": "Kirkegata 15",
        "address": "Kirkegata 15",
        "lat": 59.91015615055511,
        "lon": 10.743456971511705,
        "capacity": 12
      },
      {
        "station_id": "007",
        "name": "Sk\u00f8yen Stasjon",
        "address": "Sk\u00f8yen Stasjon",
        "lat": 59.922723981014094,
        "lon": 10.67862514536896,
        "capacity": 30
      },
      {
        "station_id": "008",
        "name": "7 Juni Plassen",
        "address": "7 Juni Plassen",
        "lat": 59.9150596,
        "lon": 10.7312715,
        "capacity": 21
      },
      {
        "station_id": "009",
        "name": "D\u00e6lenenggata",
        "address": "D\u00e6lenenggata 38",
        "lat": 59.9287502718149,
        "lon": 10.767546377298158,
        "capacity": 20
      },
      {
        "station_id": "010",
        "name": "Drammensveien",
        "address": "Drammensveien 119",
        "lat": 59.9204038,
        "lon": 10.691147,
        "capacity": 24
      },
      {
        "station_id": "011",
        "name": "Sinsen T-bane",
        "address": "Hans Nielsen Hauges gate 50",
        "lat": 59.938863086921295,
        "lon": 10.780603250331886,
        "capacity": 24
      },
      {
        "station_id": "012",
        "name": "Salt",
        "address": "Salt ved Langkaia",
        "lat": 59.906922167198275,
        "lon": 10.746530272588245,
        "capacity": 15
      }
    ]
  }
}
